,lat,lon,city,country,actual_lat,actual_lon,temp,clouds,humidity,wind_speed
0,-33.53380872274949,10.158805043324701,Saldanha,ZA,,,,,,
1,-8.124311117270604,-162.26720892914406,Samusu,WS,,,,,,
2,30.910684493293704,19.016861216062523,Ajdabiya,LY,,,,,,
3,23.33601753586097,8.15484499308249,Gat,LY,,,,,,
4,24.701339495633196,17.289052596642737,Marzuq,LY,,,,,,
5,9.374530593969922,-38.59473854653339,Itarema,BR,,,,,,
6,-40.05513207650309,-58.70052561502003,Necochea,AR,,,,,,
7,-11.414568140552468,5.8979651361582,Namibe,AO,,,,,,
8,-36.156513615065414,-95.2399491633377,Lebu,CL,,,,,,
9,-61.72875723015097,53.53312075571406,Taolanaro,MG,,,,,,
10,-4.066479955257563,35.320006686031135,Dongobesh,TZ,,,,,,
11,2.031886966827914,11.358517786061286,Ebebiyin,GQ,,,,,,
12,19.34483437293295,10.361082725049748,Bilma,NE,,,,,,
13,-0.34644787189334325,86.02659460242178,Hambantota,LK,,,,,,
14,-29.606120414128455,18.08445868663496,Springbok,ZA,,,,,,
15,11.359023402917114,71.00517714192574,Kavaratti,IN,,,,,,
16,-6.282096479961208,3.037856432545087,Omboue,GA,,,,,,
17,69.69670273735741,-0.7006762140541631,Brae,GB,,,,,,
18,77.93129098928912,33.73757325462982,Vardo,NO,,,,,,
19,21.020135720577034,-15.380951973664414,Nouadhibou,MR,,,,,,
20,-1.3375073172457346,99.35548820408212,Padang,ID,,,,,,
21,-18.072513245390198,18.973210282657345,Rundu,NA,,,,,,
22,2.5571229766734724,86.42390249203558,Hambantota,LK,,,,,,
23,-16.833317110882888,-10.368050102204315,Jamestown,SH,,,,,,
24,-23.867054550480507,-30.93114770941259,Vila Velha,BR,,,,,,
25,-40.77824673085273,-7.074756281203142,Jamestown,SH,,,,,,
26,8.69864867102006,69.85287922812397,Kavaratti,IN,,,,,,
27,-68.0294166571033,-8.583798679052482,Cape Town,ZA,,,,,,
28,-6.623130317365824,1.2451712499421692,Omboue,GA,,,,,,
29,-8.770027736234562,53.46061379399882,Victoria,SC,,,,,,
30,27.625462245395394,-115.12955986883267,Guerrero Negro,MX,,,,,,
31,-6.002597665724775,34.72830233380563,Kilimatinde,TZ,,,,,,
32,13.058187086028731,-42.98195589400093,Cayenne,GF,,,,,,
33,10.719085546514938,-84.71628374531319,Los Chiles,CR,,,,,,
34,-10.097913713091783,-84.94961805881275,Pimentel,PE,,,,,,
35,-16.674413659497322,-67.49339995181444,Chulumani,BO,,,,,,
36,6.697336264160758,1.798553009435018,Lokossa,BJ,,,,,,
37,-34.108353770396405,111.21232338163111,Busselton,AU,,,,,,
38,-15.226892703645984,1.8966821111318088,Jamestown,SH,,,,,,
39,29.842225575906255,-41.80205589786553,Ribeira Grande,PT,,,,,,
40,-11.36138638291485,-33.03316241269449,Maceio,BR,,,,,,
41,-2.5693894248266527,-72.20322271111692,Iquitos,PE,,,,,,
42,7.025728977715375,28.45725674506163,Tonj,SD,,,,,,
43,1.6656876541613514,-19.99661540653307,Bonthe,SL,,,,,,
44,-61.12969991546412,61.782388519535516,Taolanaro,MG,,,,,,
45,-13.379989056699868,-5.888363626223289,Jamestown,SH,,,,,,
46,-23.939083721517505,-2.7639042725731304,Jamestown,SH,,,,,,
47,1.9729703061920574,-5.579399982329481,San-Pedro,CI,,,,,,
48,-73.3605242155619,110.82048342868238,Albany,AU,,,,,,
49,-8.552232665237288,29.856721638899458,Kaputa,ZM,,,,,,
50,-1.2844104502186995,70.4653466735627,Hithadhoo,MV,,,,,,
51,-6.940540381177769,21.41190497864132,Tshikapa,CD,,,,,,
52,36.41375966473039,76.68416017389272,Kargil,IN,,,,,,
53,46.653499587109124,-112.7838680154116,Anaconda,US,,,,,,
54,-2.3212475118428397,50.604238684894625,Victoria,SC,,,,,,
55,-56.23530210196163,88.29981446608865,Busselton,AU,,,,,,
56,-16.100930071977476,32.872858006612994,Tete,MZ,,,,,,
57,-13.429951717580646,-44.68673352973772,Correntina,BR,,,,,,
58,-51.542406496328525,-30.702067830109293,Cidreira,BR,,,,,,
59,66.10100133581743,-24.06693591065383,Bolungarvik,IS,,,,,,
60,-44.22566184305373,58.56550892629766,Taolanaro,MG,,,,,,
61,-13.86225778300858,124.05149736107117,Kupang,ID,,,,,,
62,32.18492846018139,27.866623522171746,Marsa Matruh,EG,,,,,,
63,24.262232160191196,-70.73978603559799,Cockburn Town,TC,,,,,,
64,-3.2673967869870286,17.148418085205464,Bandundu,CD,,,,,,
65,-13.324597827946796,102.85775312190718,Palabuhanratu,ID,,,,,,
66,1.3453083163952555,-87.12763841628568,San Cristobal,EC,,,,,,
67,40.776668751256274,106.07974668182614,Haibowan,CN,,,,,,
68,-30.578595514281446,1.8940965324801713,Luderitz,NA,,,,,,
69,19.25863777460292,-68.31016663439699,Higuey,DO,,,,,,
70,-45.03615637165639,-60.85775690141031,Rawson,AR,,,,,,
71,33.693479205893965,8.961110533768418,Qibili,TN,,,,,,
72,-22.731681565984005,6.947678881662847,Henties Bay,NA,,,,,,
73,10.804387721174672,-48.368895915478596,Cayenne,GF,,,,,,
74,-9.802871190028334,-46.37833423505195,Morros,BR,,,,,,
75,22.64652957213572,-0.12278852525273454,Tessalit,ML,,,,,,
76,-10.751990028460627,-53.193077473169126,Alta Floresta,BR,,,,,,
77,21.905183413432695,15.525291901616471,Bilma,NE,,,,,,
78,-1.569748169743501,-52.10781149063801,Porto De Moz,BR,,,,,,
79,-34.492468066930265,-31.56999287421092,Arraial Do Cabo,BR,,,,,,
80,67.44617399155294,88.6045017367992,Svetlogorsk,RU,,,,,,
81,9.104321437392457,-128.93990329829379,Atuona,PF,,,,,,
82,5.277691891618359,-90.51336043023225,Puerto Ayora,EC,,,,,,
83,21.06275456595988,-18.728141189562564,Nouadhibou,MR,,,,,,
84,-15.24090725556177,-81.90862851974052,Lima,PE,,,,,,
85,3.922540856475756,10.849177051602506,Eseka,CM,,,,,,
86,14.977433888603262,29.643033588806322,Bara,SD,,,,,,
87,63.480033845675884,57.0069061023957,Vuktyl,RU,,,,,,
88,-11.465996401113292,-96.99328885873476,Puerto Ayora,EC,,,,,,
89,-7.50033312480199,-4.875181947896324,Jamestown,SH,,,,,,
90,-21.210221195370018,0.004929634859318632,Jamestown,SH,,,,,,
91,7.414402115750567,-44.57508366718247,Saint-Georges,GF,,,,,,
92,-1.7917288571389616,32.48832706514806,Muriti,TZ,,,,,,
93,-34.022596339936065,6.08083130712086,Luderitz,NA,,,,,,
94,-19.50420146259532,-14.75977608681119,Jamestown,SH,,,,,,
95,-2.2309192637259976,-78.95876212745745,Alausi,EC,,,,,,
96,19.448999457090107,-12.24963091171507,Atar,MR,,,,,,
97,27.8613276709996,-5.88078623587423,Tarudant,MA,,,,,,
98,-1.529367337999733,165.45707698668306,Tabiauea,KI,,,,,,
99,9.518708654920164,-61.57276911004936,Siparia,TT,,,,,,
100,-40.57708812253818,38.723493499713975,Margate,ZA,,,,,,
101,7.7182956313023325,34.19136242706249,Gambela,ET,,,,,,
102,4.6493395999446125,-52.621164129698926,Roura,GF,,,,,,
103,14.85507041196245,-8.711904966646848,Nioro,ML,,,,,,
104,-11.563562951569708,100.99949850068862,Labuhan,ID,,,,,,
105,-11.535751618582559,6.56018613858509,Namibe,AO,,,,,,
106,44.9988493871664,26.828910936535657,Smeeni,RO,,,,,,
107,-44.87776796370156,-1.3169474515119513,Cape Town,ZA,,,,,,
108,-29.054559404403044,-30.174148009398532,Sao Joao Da Barra,BR,,,,,,
109,-28.82714514312363,-112.84609093044679,Rikitea,PF,,,,,,
110,45.09915108006236,-26.223780777663656,Lagoa,PT,,,,,,
111,-72.78824838636538,0.16695059371204157,Hermanus,ZA,,,,,,
112,28.399619011823553,-91.78793038981412,Morgan City,US,,,,,,
113,18.28939478214377,26.21693706400608,Kutum,SD,,,,,,
114,7.402696354759301,-43.97609590361248,Saint-Georges,GF,,,,,,
115,-7.011238108495068,21.2761774173787,Tshikapa,CD,,,,,,
116,-18.48901842723837,57.21518483417404,Cap Malheureux,MU,,,,,,
117,37.61438192517845,-3.0131115419655075,Baza,ES,,,,,,
118,-30.707376945571475,-26.635588375375193,Sao Joao Da Barra,BR,,,,,,
119,-11.00516640883982,22.399276548895077,Luau,AO,,,,,,
120,17.588173250343765,-51.76158208800074,Bathsheba,BB,,,,,,
121,0.08411741273996987,-36.02186017855886,Caucaia,BR,,,,,,
122,4.166412453051443,-62.95192076261582,Boa Vista,BR,,,,,,
123,11.281810232140636,92.265471247682,Port Blair,IN,,,,,,
124,20.0144355603913,94.04527864953475,Minbu,MM,,,,,,
125,-26.888337300573035,72.36362987532165,Bambous Virieux,MU,,,,,,
126,-24.09034113231429,15.127271004380205,Walvis Bay,NA,,,,,,
127,-16.557534069913014,-88.87332089456828,Hualmay,PE,,,,,,
128,-13.998289751846936,-69.00194683320125,Tambopata,PE,,,,,,
129,17.046161209434956,72.11770042048609,Guhagar,IN,,,,,,
130,-27.898286012831704,-4.06670676402853,Jamestown,SH,,,,,,
131,-5.065167244259059,108.39502216101685,Indramayu,ID,,,,,,
132,29.52454993371407,110.21066365753157,Dayong,CN,,,,,,
133,-39.68458528180119,11.525884047226526,Cape Town,ZA,,,,,,
134,31.685779939633225,-44.722967364402905,Ribeira Grande,PT,,,,,,
135,-0.97818368560114,44.1822346387922,Kismayo,SO,,,,,,
136,2.147162046691709,83.04267073392626,Hambantota,LK,,,,,,
137,32.3131881745902,-1.5203736298864294,Nador,MA,,,,,,
138,-33.32848918832529,-15.42345371294384,Jamestown,SH,,,,,,
139,16.76224305167216,-24.646491121262756,Mindelo,CV,,,,,,
140,-51.598739869902836,-28.933419451751863,Cidreira,BR,,,,,,
141,-22.89034396516621,-3.012409831958947,Jamestown,SH,,,,,,
142,52.214477336822256,13.788258894608722,Konigs Wusterhausen,DE,,,,,,
143,9.74111931063919,85.10548327366477,Batticaloa,LK,,,,,,
144,38.09911399878805,-63.895615633340064,Saint George,BM,,,,,,
145,6.045868806986322,80.25346890044251,Galle,LK,,,,,,
146,12.426642420306196,-141.18518755310134,Hilo,US,,,,,,
147,-29.961032428753576,11.515037855017134,Luderitz,NA,,,,,,
148,-31.638839604039724,-49.92178993972932,Cidreira,BR,,,,,,
149,7.518744046904578,-73.89680158897016,Cantagallo,CO,,,,,,
150,-5.167323916455768,1.3688852863481116,Port-Gentil,GA,,,,,,
151,11.518578381321417,-39.360596729943865,Carutapera,BR,,,,,,
152,10.17172804466139,10.308226456178826,Bauchi,NG,,,,,,
153,-20.694944654865694,15.676810696678242,Outjo,NA,,,,,,
154,55.77568717623076,1.9185252648297606,Bridlington,GB,,,,,,
155,24.118047523008155,48.867418890184275,Buqayq,SA,,,,,,
156,11.721083101718266,-83.07751441648256,Corn Island,NI,,,,,,
157,17.571153628654372,-9.074040971234389,Nioro,ML,,,,,,
158,24.616162162914357,43.486697595117796,Buraydah,SA,,,,,,
159,-16.476102612344633,-7.380896965189062,Jamestown,SH,,,,,,
160,-38.4062227374264,61.8195257084424,Saint-Philippe,RE,,,,,,
161,-0.18534976374732937,-17.88258788887077,Georgetown,SH,,,,,,
162,-43.77746141119595,-25.13434074831952,Arraial Do Cabo,BR,,,,,,
163,34.6512652748366,-88.76818140369576,Corinth,US,,,,,,
164,8.036995272579265,37.476921232357505,Giyon,ET,,,,,,
165,-78.31273388052809,-18.267054634818518,Ushuaia,AR,,,,,,
166,23.280558623032835,19.32417108062934,Faya,TD,,,,,,
167,-7.876988552612682,-82.48090193327522,Pimentel,PE,,,,,,
168,-44.565410119557505,76.20379088011563,Mahebourg,MU,,,,,,
169,-40.65480380846145,31.692238850207325,East London,ZA,,,,,,
170,-16.338651978640552,17.29111357169051,Eenhana,NA,,,,,,
171,-4.1480755216012675,83.34110420867013,Matara,LK,,,,,,
172,41.94136752977237,-12.84192630748256,Muros,ES,,,,,,
173,52.737873140312914,-17.954000179033592,Dingle,IE,,,,,,
174,3.656883782807432,23.174236843893237,Bondo,CD,,,,,,
175,-37.73782788741083,31.445951322099397,East London,ZA,,,,,,
176,30.448184321413542,-96.54820516967236,College Station,US,,,,,,
177,51.49036610646403,11.31934136611408,Sangerhausen,DE,,,,,,
178,4.537473339850903,6.030021283727102,Yenagoa,NG,,,,,,
179,16.747560093585427,-1.7988387986474605,Tombouctou,ML,,,,,,
180,84.4257290704599,-0.07844590375735916,Barentsburg,SJ,,,,,,
181,-16.66848525174245,-19.951374970300677,Georgetown,SH,,,,,,
182,30.43259394519268,21.569578004067964,Awjilah,LY,,,,,,
183,-21.572808720707357,80.2437070565032,Hithadhoo,MV,,,,,,
184,2.7566936923256393,8.982263252638687,Riaba,GQ,,,,,,
185,-21.032424251784253,72.36413331255048,Grand River South East,MU,,,,,,
186,69.37041839549666,-0.4918051161638284,Brae,GB,,,,,,
187,54.27021919387626,18.214459707407215,Kartuzy,PL,,,,,,
188,-17.633337578647744,-0.40474668077715503,Jamestown,SH,,,,,,
189,26.628355814407993,-6.782048149600513,Tiznit,MA,,,,,,
190,-9.716774200020783,17.966855460535303,Malanje,AO,,,,,,
191,-33.27669016330984,-141.03973030237552,Rikitea,PF,,,,,,
192,16.20793949887298,89.23434450225949,Paradwip,IN,,,,,,
193,-22.88148128234829,-29.039728094130798,Caravelas,BR,,,,,,
194,-0.4051856035178849,123.41133788790246,Luwuk,ID,,,,,,
195,-5.099741638677494,128.8928478722992,Ambon,ID,,,,,,
196,9.29730725542839,5.282214221501372,Lafiagi,NG,,,,,,
197,27.529576235714345,24.74726824886125,Jalu,LY,,,,,,
198,51.22492639910122,-5.212451964520003,Haverfordwest,GB,,,,,,
199,-0.006670804821298226,-20.60745141858229,Georgetown,SH,,,,,,
200,31.375128417124845,5.908306589452313,Warqla,DZ,,,,,,
201,-36.257131316214696,-68.52647026632303,San Rafael,AR,,,,,,
202,-44.25967796768022,17.539615580317083,Hermanus,ZA,,,,,,
203,5.352658419300967,-53.45302700083703,Iracoubo,GF,,,,,,
204,9.651805341054622,0.6001787604774165,Bassar,TG,,,,,,
205,-44.73789064296208,1.2838744059429334,Cape Town,ZA,,,,,,
206,-2.4234157181480396,60.98646072794233,Victoria,SC,,,,,,
207,20.2032455593953,-6.5739409596379685,Araouane,ML,,,,,,
208,5.05523364538648,-44.920769307768914,Salinopolis,BR,,,,,,
209,-7.630364215964939,128.61263974830314,Ambon,ID,,,,,,
210,-12.00442476367523,6.210750440700634,Namibe,AO,,,,,,
211,-19.874118194412535,49.7972155393762,Mahanoro,MG,,,,,,
212,17.719018389537442,-25.47426301020758,Ponta Do Sol,CV,,,,,,
213,69.05988819185829,7.039669981652487,Sistranda,NO,,,,,,
214,-19.69459370350088,5.967278161009965,Namibe,AO,,,,,,
215,-37.5373567352335,-88.65863818197246,Lebu,CL,,,,,,
216,-10.579757354214435,33.72806487077707,Livingstonia,MW,,,,,,
217,-5.551754659960461,-26.32720634723729,Cabedelo,BR,,,,,,
218,50.07462740937088,-24.528866203912347,Lagoa,PT,,,,,,
219,-48.03314394146275,-42.19624418050457,Rocha,UY,,,,,,
220,2.1339423616996425,-11.608051242805002,Buchanan,LR,,,,,,
221,0.616096459304134,-88.00918841884263,San Cristobal,EC,,,,,,
222,-1.056284587300349,4.362392333921386,Port-Gentil,GA,,,,,,
223,-4.959325792444867,126.06950598495571,Ambon,ID,,,,,,
224,-4.434365980911967,-16.182005948627193,Georgetown,SH,,,,,,
225,-11.874797811079924,3.595901942094943,Namibe,AO,,,,,,
226,-11.661194945341908,-33.17014860621433,Maceio,BR,,,,,,
227,-7.563771978934057,-24.761783635883,Pitimbu,BR,,,,,,
228,5.486876622650872,24.565425097705344,Zemio,CF,,,,,,
229,31.91426570275267,-15.768230024674677,Porto Santo,PT,,,,,,
230,-6.514998255331798,-10.165364370681669,Georgetown,SH,,,,,,
231,-5.769359139991537,62.950153832405526,Victoria,SC,,,,,,
232,13.724450704563068,21.602135583347728,Adre,TD,,,,,,
233,57.86308717475147,-18.73950024029275,Vestmannaeyjar,IS,,,,,,
234,20.550138799135514,12.09867168012697,Bilma,NE,,,,,,
235,10.033446206313371,65.4682398773496,Kavaratti,IN,,,,,,
236,-23.44176376307641,-121.4871063952127,Rikitea,PF,,,,,,
237,0.4347069067367283,-34.84132609508884,Aquiraz,BR,,,,,,
238,-14.338731582337436,-4.113021934318926,Jamestown,SH,,,,,,
239,-17.556241789472402,-0.11191996708210972,Jamestown,SH,,,,,,
240,-52.155481337909386,45.60177143829573,Umzimvubu,ZA,,,,,,
241,-8.700703241621845,-1.4677659387054556,Jamestown,SH,,,,,,
242,-8.577546653480285,110.59255738132595,Bambanglipuro,ID,,,,,,
243,8.772607178331636,-94.80187957694547,Champerico,GT,,,,,,
244,-7.601582893383668,-111.93379090396336,Puerto Ayora,EC,,,,,,
245,0.0,24.706887386242123,Kisangani,CD,,,,,,
246,10.288454304352612,6.190979172005358,Kontagora,NG,,,,,,
247,-66.02076234273011,-32.029390837991684,Mar Del Plata,AR,,,,,,
248,-4.967636571392779,-0.5396152231112258,Takoradi,GH,,,,,,
249,12.355961802378271,-29.7848178517082,Sao Filipe,CV,,,,,,
250,59.38432812979135,52.4687700539458,Svetlopolyansk,RU,,,,,,
251,-17.767600805008023,-78.85810453822859,Marcona,PE,,,,,,
252,-4.091187932825544,-4.758473679674822,Tabou,CI,,,,,,
253,22.071495149093185,-129.75367164070798,Lompoc,US,,,,,,
254,-18.482890771175477,-10.21331549143366,Jamestown,SH,,,,,,
255,-71.86998191520054,49.0672201546293,Port Alfred,ZA,,,,,,
256,-11.478006785642197,-33.325204162979794,Maceio,BR,,,,,,
257,-3.8851868849119846,-40.12944672949778,Sobral,BR,,,,,,
258,-23.85378488968357,98.5000650438493,Carnarvon,AU,,,,,,
259,-6.79567690268146,4.312728433082639,Gamba,GA,,,,,,
260,-49.58751967026552,8.019069063908812,Cape Town,ZA,,,,,,
261,3.9924704267431466,-13.511908099921932,Robertsport,LR,,,,,,
262,-6.9608540528675,-3.793808555633982,Jamestown,SH,,,,,,
263,-23.193899784727993,-16.76064804559666,Jamestown,SH,,,,,,
264,-62.58587139360531,62.37742621305197,Taolanaro,MG,,,,,,
265,-14.482241828713931,-0.9108888058608312,Jamestown,SH,,,,,,
266,-2.620411254903053,98.60135401264955,Padang,ID,,,,,,
267,-79.88304136325814,-21.89735252057816,Ushuaia,AR,,,,,,
268,17.142091850993804,-0.04410538307848877,Gao,ML,,,,,,
269,-4.925525945669515,69.24893908233962,Hithadhoo,MV,,,,,,
270,-57.271550608821066,27.879596161747674,Port Elizabeth,ZA,,,,,,
271,-38.33273971265664,52.66322479932522,Taolanaro,MG,,,,,,
272,-5.150657815129021,44.14519087705328,Micheweni,TZ,,,,,,
273,40.067403508965555,3.643210754899716,Alcudia,ES,,,,,,
274,-8.341442856858354,-111.58703129281294,Puerto Ayora,EC,,,,,,
275,-18.356749282839242,-19.636605051596163,Georgetown,SH,,,,,,
276,-42.47162588795212,0.1927181183037554,Saldanha,ZA,,,,,,
277,-63.862397450009794,11.670479490881565,Hermanus,ZA,,,,,,
278,-28.235523166136748,-0.748683783077394,Jamestown,SH,,,,,,
279,1.8324752917484406,-5.6518140056565445,San-Pedro,CI,,,,,,
280,-66.03998450557764,-59.60172387652376,Ushuaia,AR,,,,,,
281,1.4872731309332536,-0.10075925433268129,Takoradi,GH,,,,,,
282,-3.1662345396397154,28.399590815276838,Cibitoke,BI,,,,,,
283,-45.47158543549422,50.13134747044553,Taolanaro,MG,,,,,,
284,-15.24733703986292,-64.65473404792132,Trinidad,BO,,,,,,
285,-1.8045184363883249,-3.192121111173342,Axim,GH,,,,,,
286,10.759956435748137,-9.467302562052401,Kankan,GN,,,,,,
287,48.452617876439575,-76.55434118009087,Senneterre,CA,,,,,,
288,-63.34254510870847,43.67054773271967,Port Alfred,ZA,,,,,,
289,-50.88822056121384,-29.508885941520298,Cidreira,BR,,,,,,
290,-38.34483285557492,-0.8377094371773063,Saldanha,ZA,,,,,,
291,2.7317618707088065,-13.866881713409535,Monrovia,LR,,,,,,
292,5.55382566559973,-16.560276053719534,Goderich,SL,,,,,,
293,5.705730280274057,-11.851477518917617,Robertsport,LR,,,,,,
294,2.981656828065224,59.48554709939802,Victoria,SC,,,,,,
295,-1.5275956115023963,71.5311142320629,Hithadhoo,MV,,,,,,
296,46.44273963331455,30.669285960108287,Odesa,UA,,,,,,
297,-6.948500744470332,37.75592908287756,Morogoro,TZ,,,,,,
298,4.851240601291818,108.73988743975026,Kuching,MY,,,,,,
299,6.346394439647545,-33.42921192898411,Trairi,BR,,,,,,
300,-57.53721729008838,-119.36622642628262,Rikitea,PF,,,,,,
301,-21.687664586314526,-6.675570604927578,Jamestown,SH,,,,,,
302,-10.943282640623519,-7.738930743026491,Jamestown,SH,,,,,,
303,-31.720346935743112,0.9717455537701074,Luderitz,NA,,,,,,
304,-50.68999159747322,-45.225827656506326,Mar Del Plata,AR,,,,,,
305,17.52215609492126,-3.4062847997678904,Tombouctou,ML,,,,,,
306,13.999997060587976,40.059723644849335,Abiy Adi,ET,,,,,,
307,-5.276017863641018,-11.901775137519476,Georgetown,SH,,,,,,
308,21.607001204128174,8.230833098916822,Arlit,NE,,,,,,
309,84.757052389336,61.35978213723813,Amderma,RU,,,,,,
310,-21.56975779832983,6.464692638222838,Henties Bay,NA,,,,,,
311,3.277816333565302,92.84333193700577,Banda Aceh,ID,,,,,,
312,1.925722683543671,18.610441093725143,Impfondo,CG,,,,,,
313,-11.675453581210572,131.38315167270858,Nguiu,AU,,,,,,
314,60.54750467383574,46.651765871366656,Velikiy Ustyug,RU,,,,,,
315,-78.12059894433425,6.543656469347576,Hermanus,ZA,,,,,,
316,-0.4712300599792254,-65.52384600705648,Santa Isabel Do Rio Negro,BR,,,,,,
317,-8.20330395804341,-2.9700263160684357,Jamestown,SH,,,,,,
318,35.493954053480635,-20.99853678920009,Ponta Do Sol,PT,,,,,,
319,-2.540469709464891,106.59460465588036,Mentok,ID,,,,,,
320,12.443348202144097,-12.04758468941362,Kedougou,SN,,,,,,
321,-3.8237329534601274,-38.75274232308531,Maracanau,BR,,,,,,
322,-18.132950988895487,-4.2107032565301346,Jamestown,SH,,,,,,
323,-1.105956662378849,138.2101901666243,Biak,ID,,,,,,
324,-33.80855974049446,5.480937132890564,Luderitz,NA,,,,,,
325,21.72417186919089,22.324627788897836,Faya,TD,,,,,,
326,2.2480544256262203,-1.1794970495367993,Takoradi,GH,,,,,,
327,-7.715093925710532,122.0169606953491,Maumere,ID,,,,,,
328,46.804984425952334,-57.3420256498391,Burgeo,CA,,,,,,
329,-4.850278569534906,-1.378979375815964,Takoradi,GH,,,,,,
330,18.028240949345545,7.135980042658485,Arlit,NE,,,,,,
331,-16.439521421426193,74.15714071004768,Hithadhoo,MV,,,,,,
332,-42.57498917567041,25.492686888795163,Kruisfontein,ZA,,,,,,
333,-9.514347765824137,36.38117678782204,Malinyi,TZ,,,,,,
334,-9.077276361323964,69.49784759588825,Hithadhoo,MV,,,,,,
335,1.9381984002932966,16.247103633728802,Ouesso,CG,,,,,,
336,-37.95749025806594,68.68316561047803,Mahebourg,MU,,,,,,
337,-15.63653046606081,-24.839789896302165,Maragogi,BR,,,,,,
338,-19.250547006645988,113.9975943089806,Karratha,AU,,,,,,
339,-5.272701234918646,60.049671633943866,Victoria,SC,,,,,,
340,-5.346434408576326,40.119001533166866,Chake Chake,TZ,,,,,,
341,-23.315946030634553,16.12618621221674,Rehoboth,NA,,,,,,
342,9.336525504902918,-23.932470420581534,Sao Filipe,CV,,,,,,
343,0.9436655543979988,-10.775615011596742,Harper,LR,,,,,,
344,-17.34848604841303,-1.6270585620027145,Jamestown,SH,,,,,,
345,-3.855459070372724,23.868047794724955,Lodja,CD,,,,,,
346,27.227067519426846,-29.6367074314018,Ponta Do Sol,CV,,,,,,
347,51.02130934934796,0.3697700911980175,Royal Tunbridge Wells,GB,,,,,,
348,62.3116627985285,91.99916741596489,Teya,RU,,,,,,
349,3.5634279127078,-21.12003593420811,Goderich,SL,,,,,,
350,-0.579836302906587,-46.27712462274074,Augusto Correa,BR,,,,,,
351,4.188167790530034,-15.624210542817764,Bonthe,SL,,,,,,
352,-43.390159770122665,-2.579871177498897,Saldanha,ZA,,,,,,
353,-0.990205468430041,-150.22343166897812,Atuona,PF,,,,,,
354,4.162545161262118,-73.53469950441763,Villavicencio,CO,,,,,,
355,38.97188019701023,79.50691125150931,Aksu,CN,,,,,,
356,62.86390793629434,-0.40232234074274853,Brae,GB,,,,,,
357,-13.106092595817863,-80.13666224725048,Hualmay,PE,,,,,,
358,19.47626842192217,-22.602961144217385,Santa Maria,CV,,,,,,
359,28.047993317155502,-1.5062993969571072,Adrar,DZ,,,,,,
360,-3.272708631600081,2.2024002583615916,Port-Gentil,GA,,,,,,
361,-34.47605937036719,4.455494276715259,Luderitz,NA,,,,,,
362,6.388119753438313,33.44767798012367,Kapoeta,SD,,,,,,
363,29.288049312199714,-71.72516503350063,Cockburn Town,BS,,,,,,
364,-5.6916768073829225,22.454840484261908,Kananga,CD,,,,,,
365,-32.96251196148795,-56.25792400031565,Paso De Los Toros,UY,,,,,,
366,31.612322048899294,-3.9840962729811893,Mrirt,MA,,,,,,
367,-41.455121479262196,-159.24064878105082,Avarua,CK,,,,,,
368,2.9645875788937937,1.8238042339774263,Anloga,GH,,,,,,
369,55.463995676723385,140.86569613961717,Mnogovershinnyy,RU,,,,,,
370,16.535592210413345,11.653049998125928,Bilma,NE,,,,,,
371,25.00913880684411,-64.14208314217555,Road Town,VG,,,,,,
372,12.5530923596144,30.451562573142617,Umm Ruwabah,SD,,,,,,
373,-11.674899086627414,0.3173885848302658,Jamestown,SH,,,,,,
374,2.5308443673989967,-2.3305317012337525,Axim,GH,,,,,,
375,42.67416910655869,-108.46209950099188,Lander,US,,,,,,
376,-73.59108912212726,-29.679693529517788,Ushuaia,AR,,,,,,
377,41.83057491837511,2.916749801377442,Sant Feliu De Guixols,ES,,,,,,
378,57.100473076710145,13.408879265238655,Ljungby,SE,,,,,,
379,-24.597862575135856,5.613936433174714,Henties Bay,NA,,,,,,
380,-2.144255359796474,-16.58821620493421,Georgetown,SH,,,,,,
381,19.720873338737967,-0.5575550120115425,Tessalit,ML,,,,,,
382,49.23032218662857,61.66307556231465,Svetlyy,RU,,,,,,
383,22.514476930372187,-13.78436128933577,Atar,MR,,,,,,
384,-56.66093685541739,-114.4159283093866,Rikitea,PF,,,,,,
385,42.9898609423093,47.381958364813975,Leninkent,RU,,,,,,
386,-14.11764560472209,11.894353480644511,Namibe,AO,,,,,,
387,15.722453241278549,-16.836703891051314,Saint-Louis,SN,,,,,,
388,-44.94521993697019,52.27716766330148,Taolanaro,MG,,,,,,
389,-8.18896993254722,-29.17254501397995,Pitimbu,BR,,,,,,
390,54.53636103317699,-13.543202903053363,Dingle,IE,,,,,,
391,-40.97456802539277,43.38582947986214,Tsihombe,MG,,,,,,
392,36.12997166776752,50.96609380509207,Karaj,IR,,,,,,
393,-74.01643795159194,-4.730083306071032,Hermanus,ZA,,,,,,
394,-16.43062693666363,-23.061490420980604,Georgetown,SH,,,,,,
395,0.2644986783806207,81.29418079577306,Matara,LK,,,,,,
396,23.676296931498054,-18.527735989767635,Nouadhibou,MR,,,,,,
397,-4.678509196833813,-60.50635880491122,Novo Aripuana,BR,,,,,,
398,-18.270876379938812,-16.496532765950594,Georgetown,SH,,,,,,
399,-3.7879947008644264,8.744867374856257,Gamba,GA,,,,,,
400,52.01768179442905,-10.1755196122127,Dingle,IE,,,,,,
401,49.915423636521,-11.266284262702738,Dingle,IE,,,,,,
402,-48.008822280189904,109.69181037356675,Albany,AU,,,,,,
403,10.800023565806859,-22.120847382880044,Praia,CV,,,,,,
404,1.0596661216016057,5.366233718933134,Port-Gentil,GA,,,,,,
405,9.306482996625098,82.41132601218662,Trincomalee,LK,,,,,,
406,-30.32116984733922,-0.12102100294773932,Jamestown,SH,,,,,,
407,81.53923860652812,47.97294116623064,Belushya Guba,RU,,,,,,
408,-44.00489380353313,5.817394035034015,Cape Town,ZA,,,,,,
409,12.523406382849354,-69.92125102578078,Oranjestad,AW,,,,,,
410,38.83608094482398,38.43638861751811,Malatya,TR,,,,,,
411,3.2164797765140163,79.34587375646132,Weligama,LK,,,,,,
412,8.94984036879376,64.69739866984074,Kavaratti,IN,,,,,,
413,-25.403082310555938,-72.37296972445236,Taltal,CL,,,,,,
414,-35.139385606609856,-73.5425703031708,Constitucion,CL,,,,,,
415,-32.80233087432582,-9.938816751386728,Jamestown,SH,,,,,,
416,-1.9567164526543865,15.079679486079181,Djambala,CG,,,,,,
417,6.544509102709138,-26.974169960306476,Sao Filipe,CV,,,,,,
418,3.018154683359003,-30.765199408132432,Touros,BR,,,,,,
419,15.235664441781786,-52.88117075635348,Bathsheba,BB,,,,,,
420,30.93180884540896,28.379653358574604,Marsa Matruh,EG,,,,,,
421,5.817647672459061,25.09803157485166,Zemio,CF,,,,,,
422,-0.3093522353886654,135.1292077558707,Manokwari,ID,,,,,,
423,2.201792692968784,4.104184816260883,Yenagoa,NG,,,,,,
424,-5.2394498987937395,103.84809431948986,Pringsewu,ID,,,,,,
425,-2.5215412753227846,-129.92983399817516,Atuona,PF,,,,,,
426,34.92426923817246,-67.23536911738039,Hamilton,BM,,,,,,
427,-11.35351414366825,121.09974107501611,Waingapu,ID,,,,,,
428,-3.651075343118786,-113.30541820946402,Puerto Ayora,EC,,,,,,
429,26.82163701935638,-56.82133029826263,Saint George,BM,,,,,,
430,-1.0179529808901036,42.91289982917448,Kismayo,SO,,,,,,
431,19.52816836273627,-1.7776423516178608,Araouane,ML,,,,,,
432,-32.87603427786898,-0.15019650861678113,Luderitz,NA,,,,,,
433,31.28843120431152,-85.4091015038765,Dothan,US,,,,,,
434,53.79337763096738,-40.4909440554673,Nanortalik,GL,,,,,,
435,-0.9760977206497242,124.65630325998178,Luwuk,ID,,,,,,
436,-19.364662174107025,-19.86365624117817,Georgetown,SH,,,,,,
437,18.132650568022953,4.563479684481292,Arlit,NE,,,,,,
438,-4.739275425552474,100.11304474814223,Bengkulu,ID,,,,,,
439,32.47494861778612,85.79868823342073,Pokhara,NP,,,,,,
440,53.99548391693767,6.305059691189378,Winsum,NL,,,,,,
441,-29.641224144063074,-44.34119144632126,Imbituba,BR,,,,,,
442,20.442359591984488,21.63877591132564,Faya,TD,,,,,,
443,34.93962544742653,-18.332516644230697,Ponta Do Sol,PT,,,,,,
444,-40.237954116529316,-124.8088365389361,Rikitea,PF,,,,,,
445,-0.09114811848763305,54.77789164164046,Victoria,SC,,,,,,
446,-35.6236034471751,-34.57032527423848,Arraial Do Cabo,BR,,,,,,
447,-2.55246653301715,79.83212153571688,Hithadhoo,MV,,,,,,
448,14.37700942140096,-39.69524486611699,Ponta Do Sol,CV,,,,,,
449,-4.6441998603206525,-39.22610290469949,Caninde,BR,,,,,,
450,-50.338732952336635,13.23048486123756,Hermanus,ZA,,,,,,
451,-29.65577261244852,-27.613116225262353,Sao Joao Da Barra,BR,,,,,,
452,0.10554118867505458,89.39265387082031,Meulaboh,ID,,,,,,
453,39.69729441555172,-29.57079945505394,Ribeira Grande,PT,,,,,,
454,3.4300149239619424,-45.308304590330955,Salinopolis,BR,,,,,,
455,-18.805954562854353,90.27651236175151,Bengkulu,ID,,,,,,
456,-4.578558121983564,-21.523138777309924,Georgetown,SH,,,,,,
457,16.759193512218275,-0.6270829701049231,Gao,ML,,,,,,
458,-9.943692699621685,-2.712549519095501,Jamestown,SH,,,,,,
459,6.685526508120116,60.5628060033962,Bandarbeyla,SO,,,,,,
460,-1.4484964074973066,-126.1525185629287,Atuona,PF,,,,,,
461,-30.37287411085589,-25.464664439105007,Sao Joao Da Barra,BR,,,,,,
462,-11.109308317211365,74.67359687759748,Hithadhoo,MV,,,,,,
463,-3.149410632428054,-22.00543913262546,Georgetown,SH,,,,,,
464,26.347958438381042,4.122368038177406,Adrar,DZ,,,,,,
465,-55.060171148388044,91.79001299625601,Busselton,AU,,,,,,
466,-4.706932272850965,110.73654105478114,Jati,ID,,,,,,
467,-26.92426749128349,-86.11459982600952,Coquimbo,CL,,,,,,
468,1.4239570469324456,94.06167267759425,Meulaboh,ID,,,,,,
469,-30.181898550651166,67.18584769832174,Mahebourg,MU,,,,,,
470,21.408660326218765,-2.650942868647495,Taoudenni,ML,,,,,,
471,-61.88795100199149,-4.207032335360635,Cape Town,ZA,,,,,,
472,-14.023223657367726,-34.271880043969546,Conde,BR,,,,,,
473,14.598665956226991,28.974063671875207,Bara,SD,,,,,,
474,-37.49804007425952,36.38133898011258,Margate,ZA,,,,,,
475,-55.006132997297044,42.82127801313327,East London,ZA,,,,,,
476,-54.83688877029267,-38.571405441929386,Mar Del Plata,AR,,,,,,
477,-17.761063401883533,75.35288797471117,Hithadhoo,MV,,,,,,
478,-64.0905330476105,23.596235776589978,Bredasdorp,ZA,,,,,,
479,-3.579350040173051,6.2148380599889155,Omboue,GA,,,,,,
480,8.241550489619506,-35.92212600168646,Itarema,BR,,,,,,
481,51.78604716887207,-59.93543453172778,Saint-Augustin,CA,,,,,,
482,-6.320523448022012,-59.80619302881587,Novo Aripuana,BR,,,,,,
483,-14.086520032287275,-21.977376462901557,Georgetown,SH,,,,,,
484,2.5412099787132068,153.99815433368687,Kavieng,PG,,,,,,
485,-34.3268395906033,-74.96705795494779,Constitucion,CL,,,,,,
486,0.8272656378714521,-3.064098471502207,Axim,GH,,,,,,
487,4.8273711235557055,-18.97542018657792,Goderich,SL,,,,,,
488,-1.987217072276318,-21.047331209212764,Georgetown,SH,,,,,,
489,3.1406456375784915,34.646284381238004,Kotido,UG,,,,,,
490,-10.510122626682374,-30.946875537057185,Sao Jose Da Coroa Grande,BR,,,,,,
491,7.322768992721346,138.59149862131756,Airai,PW,,,,,,
492,18.33486100347914,-4.797153081650696,Araouane,ML,,,,,,
493,2.3024697583508194,72.41878141763738,Kudahuvadhoo,MV,,,,,,
494,24.112940249801333,-94.33170205007681,Matamoros,MX,,,,,,
495,4.625815333013818,12.079138035245482,Nkoteng,CM,,,,,,
496,16.550521952567596,0.7455100159934078,Gao,ML,,,,,,
497,-40.67502902553229,1.1480263800668944,Saldanha,ZA,,,,,,
498,-2.572991865076535,14.970988055287487,Djambala,CG,,,,,,
499,38.5748482481193,24.30150591820097,Oxilithos,GR,,,,,,
500,8.394204061564887,3.7296031214128442,Igboho,NG,,,,,,
501,-8.03957411798497,32.677764321423496,Laela,TZ,,,,,,
502,-5.216229152176386,79.5867125851045,Hithadhoo,MV,,,,,,
503,0.9425006007632932,-29.540977764600555,Touros,BR,,,,,,
504,25.658339628921226,50.79597364459745,Umm Bab,QA,,,,,,
505,17.22732671647996,53.49918373906488,Salalah,OM,,,,,,
506,11.332133297914675,22.22623754371749,Birao,CF,,,,,,
507,14.779659661263494,-28.928148089627012,Sao Filipe,CV,,,,,,
508,73.09855009994128,-23.407640322003118,Illoqqortoormiut,GL,,,,,,
509,0.9424338427217958,64.19330878513288,Thinadhoo,MV,,,,,,
510,55.707723151293145,-154.22174723848389,Kodiak,US,,,,,,
511,6.515643532973515,104.88048143715592,Kuala Terengganu,MY,,,,,,
512,23.481096500661348,-66.78744615500221,Cockburn Town,TC,,,,,,
513,-4.549902899271591,46.489618113324646,Bur Gabo,SO,,,,,,
514,-29.57804817035132,-15.36694282402759,Jamestown,SH,,,,,,
515,-41.036810351211855,0.3046501152123451,Saldanha,ZA,,,,,,
516,19.275515629438072,-2.321665242241801,Araouane,ML,,,,,,
517,-6.799116838891315,-158.09300770938384,Faanui,PF,,,,,,
518,10.677151374531952,50.93510804494893,Bargal,SO,,,,,,
519,-24.996804932005556,-97.80545086186855,Pisco,PE,,,,,,
520,-11.196963251841357,-2.9607077102835824,Jamestown,SH,,,,,,
521,18.797222946229084,75.2072320587497,Jamkhed,IN,,,,,,
522,-15.753356268985105,123.48921692812092,Broome,AU,,,,,,
523,41.57160547166256,74.93807663205628,At-Bashi,KG,,,,,,
524,-75.31348537171358,67.50604155976106,Taolanaro,MG,,,,,,
525,20.55434945435267,33.72907541324635,Barbar,SD,,,,,,
526,-19.4755405057681,78.32581870366829,Hithadhoo,MV,,,,,,
527,23.508309768129866,114.35261901329457,Luoyang,CN,,,,,,
528,36.019124590585555,-140.22503094403112,Fortuna,US,,,,,,
529,-16.16407093772849,0.13382885080276985,Jamestown,SH,,,,,,
530,-15.485960210951628,65.18364410418104,Grand Gaube,MU,,,,,,
531,-30.17941567558464,-16.94005584071235,Jamestown,SH,,,,,,
532,-27.8208255492472,14.539863868779735,Luderitz,NA,,,,,,
533,9.049757728346904,-10.362674085769362,Seidu,SL,,,,,,
534,-54.44562106420033,-113.76039722720336,Rikitea,PF,,,,,,
535,-1.517686557094561,-15.693637083612977,Georgetown,SH,,,,,,
536,-8.473977107133209,-6.432551956886977,Jamestown,SH,,,,,,
537,41.92787141175944,-12.785585162528266,Muros,ES,,,,,,
538,-30.06989283850172,-63.017693595275226,San Francisco,AR,,,,,,
539,-44.61997026368251,-13.663765034429254,Jamestown,SH,,,,,,
540,31.676021835487873,22.07333186147244,Darnah,LY,,,,,,
541,-23.048145664120565,-34.558149434337125,Vila Velha,BR,,,,,,
542,-46.273867221862545,-1.6357545458851148,Cape Town,ZA,,,,,,
543,-6.6526816854670825,21.664039656016783,Tshikapa,CD,,,,,,
544,47.26437599618841,-13.510412038647155,Dingle,IE,,,,,,
545,20.33154690120696,-103.61345036450113,Zacoalco,MX,,,,,,
546,-0.7083223986891092,-2.155855306470788,Axim,GH,,,,,,
547,5.85410034545261,47.1487962995524,Hobyo,SO,,,,,,
548,-32.842888104310774,-55.22293675732764,Treinta Y Tres,UY,,,,,,
549,-39.66557964305949,-1.7337908454248456,Saldanha,ZA,,,,,,
550,32.47052203663277,17.64772776671703,Surt,LY,,,,,,
551,-18.784437273958268,19.02848294751216,Rundu,NA,,,,,,
552,64.53015278107962,27.806870680627664,Kajaani,FI,,,,,,
553,-6.446649370206048,-55.199641755155746,Itaituba,BR,,,,,,
554,28.560214778986417,-62.78608996175279,Hamilton,BM,,,,,,
555,-39.40099361783083,77.73596783009715,Mahebourg,MU,,,,,,
556,-27.09430365439591,-98.51400034877939,Pisco,PE,,,,,,
557,47.95255514195567,1.9157177640738126,Fleury-Les-Aubrais,FR,,,,,,
558,17.840014130551808,-92.90621932821468,Tamulte,MX,,,,,,
559,20.93413348621286,-12.775766927501094,Atar,MR,,,,,,
560,-37.47417973430748,7.2961784831705145,Saldanha,ZA,,,,,,
561,-34.136153645670134,20.146919027778043,Swellendam,ZA,,,,,,
562,-14.600665163541105,14.321304409194656,Lubango,AO,,,,,,
563,-11.623052601397825,17.234535838211514,Camacupa,AO,,,,,,
564,-47.35831029261368,-60.74031983222205,Rawson,AR,,,,,,
565,2.035479232491632,-19.01459687966088,Bonthe,SL,,,,,,
566,-22.797370497260584,-33.91694662170509,Vila Velha,BR,,,,,,
567,1.6759551028460318,22.94756461586076,Bumba,CD,,,,,,
568,8.938280720059526,-99.03283091459494,Puerto Escondido,MX,,,,,,
569,-27.439625607293777,-71.9411599890714,Copiapo,CL,,,,,,
570,-1.2387008607891263,3.6495917169639807,Port-Gentil,GA,,,,,,
571,-15.473746899186672,4.029891077255852,Namibe,AO,,,,,,
572,8.393035990605767,-2.118693017114305,Kintampo,GH,,,,,,
573,0.37808579333897985,52.49241022610974,Victoria,SC,,,,,,
574,6.025216717585788,-48.96120952463058,Cayenne,GF,,,,,,
575,35.04276210685478,71.24025646213018,Asmar,AF,,,,,,
576,-0.713610936506462,-5.481114810409013,Tabou,CI,,,,,,
577,54.720416233777854,30.650580795811326,Orsha,BY,,,,,,
578,44.90862158610541,-1.8185680844001468,Arcachon,FR,,,,,,
579,0.01960571025869573,0.7072532277554799,Cape Coast,GH,,,,,,
580,-53.94079585894232,35.81991854836953,Port Alfred,ZA,,,,,,
581,-2.013270168456008,121.09921456258407,Poso,ID,,,,,,
582,-12.273060941778928,46.76694724747786,Dzaoudzi,YT,,,,,,
583,15.428487158612915,154.01231714827654,Kavieng,PG,,,,,,
584,20.008838716662492,2.847405091750451,Tessalit,ML,,,,,,
585,1.8883178067196766,-10.416152897119948,Harper,LR,,,,,,
586,-13.119330239978082,84.1679245372059,Hithadhoo,MV,,,,,,
587,-15.659503923512883,100.84589822339991,Palabuhanratu,ID,,,,,,
588,-18.375334376179143,-137.4508427203918,Rikitea,PF,,,,,,
589,-2.2339063171149847,115.10258381575386,Amuntai,ID,,,,,,
590,-20.775656227350208,2.133277212608311,Jamestown,SH,,,,,,
591,11.70776403217635,71.9109524191743,Kavaratti,IN,,,,,,
592,-1.5571620926030139,13.751607041336975,Lekoni,GA,,,,,,
593,0.9694904502340784,24.31909740457538,Yangambi,CD,,,,,,
594,-43.43750116775957,-22.066912131658384,Arraial Do Cabo,BR,,,,,,
595,-1.892098210238414,0.024573626831757567,Takoradi,GH,,,,,,
596,-10.202234335665977,-21.817458888845376,Georgetown,SH,,,,,,
597,-27.842777586920676,-11.650714496930759,Jamestown,SH,,,,,,
598,8.80664715273656,-89.86077803323838,Santa Cruz,CR,,,,,,
599,8.259171899862572,-146.97873219588394,Hilo,US,,,,,,
